{"type":"FeatureCollection","features":[{"type":"Feature","geometry":{"type":"Point","coordinates":[-3.727987,40.380999]},"properties":{"title":"Abrantes","description":"L11","group":568085409,"marker_id":"xllvhyfaudhy9dth","marker-color":"#e32c31"},"id":1067212425},{"type":"Feature","geometry":{"type":"Point","coordinates":[-3.705957,40.404079]},"properties":{"title":"Acacias","description":"L5","group":568085409,"marker_id":"xllvhyfaudhy9dth","marker-color":"#e32c31"},"id":3011948775},{"type":"Feature","geometry":{"type":"Point","coordinates":[-3.592842,40.492436]},"properties":{"title":"Aeropuerto T-4","description":"L8","group":568085409,"marker_id":"xllvhyfaudhy9dth","marker-color":"#e32c31"},"id":1252617638},{"type":"Feature","geometry":{"type":"Point","coordinates":[-3.57176,40.467917]},"properties":{"title":"Aeropuerto T1-T2-T3","description":"L8","group":568085409,"marker_id":"xllvhyfaudhy9dth","marker-color":"#e32c31"},"id":2563298031},{"type":"Feature","geometry":{"type":"Point","coordinates":[-3.587977,40.457582]},"properties":{"title":"Alameda de Osuna","description":"L5","group":568085409,"marker_id":"xllvhyfaudhy9dth","marker-color":"#e32c31"},"id":409726699},{"type":"Feature","geometry":{"type":"Point","coordinates":[-3.831988,40.349939]},"properties":{"title":"Alcorcón Central","description":"L12","group":568085409,"marker_id":"xllvhyfaudhy9dth","marker-color":"#e32c31"},"id":2969291422},{"type":"Feature","geometry":{"type":"Point","coordinates":[-3.667895,40.448224]},"properties":{"title":"Alfonso XIII","description":"L4","group":568085409,"marker_id":"xllvhyfaudhy9dth","marker-color":"#e32c31"},"id":3633999760},{"type":"Feature","geometry":{"type":"Point","coordinates":[-3.698009,40.383953]},"properties":{"title":"Almendrales","description":"L3","group":568085409,"marker_id":"xllvhyfaudhy9dth","marker-color":"#e32c31"},"id":4143928254},{"type":"Feature","geometry":{"type":"Point","coordinates":[-3.69926,40.438449]},"properties":{"title":"Alonso Cano","description":"L7","group":568085409,"marker_id":"xllvhyfaudhy9dth","marker-color":"#e32c31"},"id":2463365035},{"type":"Feature","geometry":{"type":"Point","coordinates":[-3.695983,40.427409]},"properties":{"title":"Alonso Martínez","description":"L4 - L5 - L10","group":568085409,"marker_id":"xllvhyfaudhy9dth","marker-color":"#e32c31"},"id":3500980488},{"type":"Feature","geometry":{"type":"Point","coordinates":[-3.737053,40.30014]},"properties":{"title":"Alonso de Mendoza","description":"L12","group":568085409,"marker_id":"xllvhyfaudhy9dth","marker-color":"#e32c31"},"id":1451427333},{"type":"Feature","geometry":{"type":"Point","coordinates":[-3.623788,40.418244]},"properties":{"title":"Alsacia","description":"L2","group":568085409,"marker_id":"xllvhyfaudhy9dth","marker-color":"#e32c31"},"id":1514963716},{"type":"Feature","geometry":{"type":"Point","coordinates":[-3.73841,40.409997]},"properties":{"title":"Alto de Extremadura","description":"L6","group":568085409,"marker_id":"xllvhyfaudhy9dth","marker-color":"#e32c31"},"id":3605535865},{"type":"Feature","geometry":{"type":"Point","coordinates":[-3.645816,40.390057]},"properties":{"title":"Alto del Arenal","description":"L1","group":568085409,"marker_id":"xllvhyfaudhy9dth","marker-color":"#e32c31"},"id":2968007876},{"type":"Feature","geometry":{"type":"Point","coordinates":[-3.760764,40.385669]},"properties":{"title":"Aluche","description":"L5","group":568085409,"marker_id":"xllvhyfaudhy9dth","marker-color":"#e32c31"},"id":1980537007},{"type":"Feature","geometry":{"type":"Point","coordinates":[-3.703502,40.450088]},"properties":{"title":"Alvarado","description":"L1","group":568085409,"marker_id":"xllvhyfaudhy9dth","marker-color":"#e32c31"},"id":2217610045},{"type":"Feature","geometry":{"type":"Point","coordinates":[-3.71788,40.47019]},"properties":{"title":"Antonio Machado","description":"L7","group":568085409,"marker_id":"xllvhyfaudhy9dth","marker-color":"#e32c31"},"id":3531415536},{"type":"Feature","geometry":{"type":"Point","coordinates":[-3.699094,40.412295]},"properties":{"title":"Antón Martín","description":"L1","group":568085409,"marker_id":"xllvhyfaudhy9dth","marker-color":"#e32c31"},"id":2560827956},{"type":"Feature","geometry":{"type":"Point","coordinates":[-3.44752,40.303677]},"properties":{"title":"Arganda del Rey","description":"L9","group":568085409,"marker_id":"xllvhyfaudhy9dth","marker-color":"#e32c31"},"id":2803206035},{"type":"Feature","geometry":{"type":"Point","coordinates":[-3.688414,40.393231]},"properties":{"title":"Arganzuela-Planetario","description":"L6","group":568085409,"marker_id":"xllvhyfaudhy9dth","marker-color":"#e32c31"},"id":994928127},{"type":"Feature","geometry":{"type":"Point","coordinates":[-3.716174,40.430728]},"properties":{"title":"Argüelles","description":"L3 - L4 - L6","group":568085409,"marker_id":"xllvhyfaudhy9dth","marker-color":"#e32c31"},"id":3516049550},{"type":"Feature","geometry":{"type":"Point","coordinates":[-3.756772,40.288625]},"properties":{"title":"Arroyo Culebro","description":"L12","group":568085409,"marker_id":"xllvhyfaudhy9dth","marker-color":"#e32c31"},"id":40446372},{"type":"Feature","geometry":{"type":"Point","coordinates":[-3.726002,40.490682]},"properties":{"title":"Arroyofresno","description":"L7","group":568085409,"marker_id":"xllvhyfaudhy9dth","marker-color":"#e32c31"},"id":4017870881},{"type":"Feature","geometry":{"type":"Point","coordinates":[-3.641852,40.405264]},"properties":{"title":"Artilleros","description":"L9","group":568085409,"marker_id":"xllvhyfaudhy9dth","marker-color":"#e32c31"},"id":1423370648},{"type":"Feature","geometry":{"type":"Point","coordinates":[-3.656178,40.455937]},"properties":{"title":"Arturo Soria","description":"L4","group":568085409,"marker_id":"xllvhyfaudhy9dth","marker-color":"#e32c31"},"id":2491169191},{"type":"Feature","geometry":{"type":"Point","coordinates":[-3.640452,40.430315]},"properties":{"title":"Ascao","description":"L7","group":568085409,"marker_id":"xllvhyfaudhy9dth","marker-color":"#e32c31"},"id":804699627},{"type":"Feature","geometry":{"type":"Point","coordinates":[-3.6886,40.406974]},"properties":{"title":"Atocha","description":"L1","group":568085409,"marker_id":"xllvhyfaudhy9dth","marker-color":"#e32c31"},"id":1263138268},{"type":"Feature","geometry":{"type":"Point","coordinates":[-3.677297,40.437648]},"properties":{"title":"Avenida de América","description":"L4 -L6 - L7 - L9","group":568085409,"marker_id":"xllvhyfaudhy9dth","marker-color":"#e32c31"},"id":277555353},{"type":"Feature","geometry":{"type":"Point","coordinates":[-3.612222,40.42245]},"properties":{"title":"Avenida de Guadalajara","description":"L2","group":568085409,"marker_id":"xllvhyfaudhy9dth","marker-color":"#e32c31"},"id":3661299660},{"type":"Feature","geometry":{"type":"Point","coordinates":[-3.662187,40.453219]},"properties":{"title":"Avenida de La Paz","description":"L4","group":568085409,"marker_id":"xllvhyfaudhy9dth","marker-color":"#e32c31"},"id":881417374},{"type":"Feature","geometry":{"type":"Point","coordinates":[-3.718304,40.480045]},"properties":{"title":"Avenida de la Ilustración","description":"L7","group":568085409,"marker_id":"xllvhyfaudhy9dth","marker-color":"#e32c31"},"id":319862488},{"type":"Feature","geometry":{"type":"Point","coordinates":[-3.784025,40.383717]},"properties":{"title":"Aviación Española","description":"L10","group":568085409,"marker_id":"xllvhyfaudhy9dth","marker-color":"#e32c31"},"id":4031046200},{"type":"Feature","geometry":{"type":"Point","coordinates":[-3.676605,40.476982]},"properties":{"title":"Bambú","description":"L1","group":568085409,"marker_id":"xllvhyfaudhy9dth","marker-color":"#e32c31"},"id":919139670},{"type":"Feature","geometry":{"type":"Point","coordinates":[-3.694926,40.419057]},"properties":{"title":"Banco de España","description":"L2","group":568085409,"marker_id":"xllvhyfaudhy9dth","marker-color":"#e32c31"},"id":3958090842},{"type":"Feature","geometry":{"type":"Point","coordinates":[-3.582623,40.475814]},"properties":{"title":"Barajas","description":"L8","group":568085409,"marker_id":"xllvhyfaudhy9dth","marker-color":"#e32c31"},"id":2808935719},{"type":"Feature","geometry":{"type":"Point","coordinates":[-3.652097,40.439367]},"properties":{"title":"Barrio de la Concepción","description":"L7","group":568085409,"marker_id":"xllvhyfaudhy9dth","marker-color":"#e32c31"},"id":3873817815},{"type":"Feature","geometry":{"type":"Point","coordinates":[-3.703541,40.47705]},"properties":{"title":"Barrio del Pilar","description":"L9","group":568085409,"marker_id":"xllvhyfaudhy9dth","marker-color":"#e32c31"},"id":625684950},{"type":"Feature","geometry":{"type":"Point","coordinates":[-3.569103,40.422475]},"properties":{"title":"Barrio del Puerto","description":"L7","group":568085409,"marker_id":"xllvhyfaudhy9dth","marker-color":"#e32c31"},"id":3039440627},{"type":"Feature","geometry":{"type":"Point","coordinates":[-3.753121,40.407838]},"properties":{"title":"Batán","description":"L10","group":568085409,"marker_id":"xllvhyfaudhy9dth","marker-color":"#e32c31"},"id":2195177549},{"type":"Feature","geometry":{"type":"Point","coordinates":[-3.635044,40.554385]},"properties":{"title":"Baunatal","description":"L10","group":568085409,"marker_id":"xllvhyfaudhy9dth","marker-color":"#e32c31"},"id":795928317},{"type":"Feature","geometry":{"type":"Point","coordinates":[-3.686906,40.483455]},"properties":{"title":"Begoña","description":"L10","group":568085409,"marker_id":"xllvhyfaudhy9dth","marker-color":"#e32c31"},"id":4189827152},{"type":"Feature","geometry":{"type":"Point","coordinates":[-3.701927,40.42927]},"properties":{"title":"Bilbao","description":"L1 - L4","group":568085409,"marker_id":"xllvhyfaudhy9dth","marker-color":"#e32c31"},"id":1759477154},{"type":"Feature","geometry":{"type":"Point","coordinates":[-3.653878,40.391628]},"properties":{"title":"Buenos Aires","description":"L1","group":568085409,"marker_id":"xllvhyfaudhy9dth","marker-color":"#e32c31"},"id":661006928},{"type":"Feature","geometry":{"type":"Point","coordinates":[-3.705912,40.420295]},"properties":{"title":"Callao","description":"L3 - L5","group":568085409,"marker_id":"xllvhyfaudhy9dth","marker-color":"#e32c31"},"id":44862554},{"type":"Feature","geometry":{"type":"Point","coordinates":[-3.76828,40.394687]},"properties":{"title":"Campamento","description":"L5","group":568085409,"marker_id":"xllvhyfaudhy9dth","marker-color":"#e32c31"},"id":509257722},{"type":"Feature","geometry":{"type":"Point","coordinates":[-3.704266,40.438637]},"properties":{"title":"Canal","description":"L2 - L7","group":568085409,"marker_id":"xllvhyfaudhy9dth","marker-color":"#e32c31"},"id":2350425695},{"type":"Feature","geometry":{"type":"Point","coordinates":[-3.635445,40.463774]},"properties":{"title":"Canillas","description":"L4","group":568085409,"marker_id":"xllvhyfaudhy9dth","marker-color":"#e32c31"},"id":1405825473},{"type":"Feature","geometry":{"type":"Point","coordinates":[-3.608585,40.449116]},"properties":{"title":"Canillejas","description":"L5","group":568085409,"marker_id":"xllvhyfaudhy9dth","marker-color":"#e32c31"},"id":3104487583},{"type":"Feature","geometry":{"type":"Point","coordinates":[-3.744989,40.387819]},"properties":{"title":"Carabanchel","description":"L5","group":568085409,"marker_id":"xllvhyfaudhy9dth","marker-color":"#e32c31"},"id":3209903691},{"type":"Feature","geometry":{"type":"Point","coordinates":[-3.751756,40.371885]},"properties":{"title":"Carabanchel Alto","description":"L11","group":568085409,"marker_id":"xllvhyfaudhy9dth","marker-color":"#e32c31"},"id":1658306439},{"type":"Feature","geometry":{"type":"Point","coordinates":[-3.740985,40.392918]},"properties":{"title":"Carpetana","description":"L6","group":568085409,"marker_id":"xllvhyfaudhy9dth","marker-color":"#e32c31"},"id":1667975378},{"type":"Feature","geometry":{"type":"Point","coordinates":[-3.671795,40.439396]},"properties":{"title":"Cartagena","description":"L7","group":568085409,"marker_id":"xllvhyfaudhy9dth","marker-color":"#e32c31"},"id":4076104264},{"type":"Feature","geometry":{"type":"Point","coordinates":[-3.760931,40.403488]},"properties":{"title":"Casa de Campo","description":"L5 - L10","group":568085409,"marker_id":"xllvhyfaudhy9dth","marker-color":"#e32c31"},"id":2860262276},{"type":"Feature","geometry":{"type":"Point","coordinates":[-3.759454,40.326678]},"properties":{"title":"Casa del Reloj","description":"L12","group":568085409,"marker_id":"xllvhyfaudhy9dth","marker-color":"#e32c31"},"id":1801819508},{"type":"Feature","geometry":{"type":"Point","coordinates":[-3.682707,40.473952]},"properties":{"title":"Chamartín","description":"L1 - L10","group":568085409,"marker_id":"xllvhyfaudhy9dth","marker-color":"#e32c31"},"id":4115693414},{"type":"Feature","geometry":{"type":"Point","coordinates":[-3.697674,40.422671]},"properties":{"title":"Chueca","description":"L5","group":568085409,"marker_id":"xllvhyfaudhy9dth","marker-color":"#e32c31"},"id":647631775},{"type":"Feature","geometry":{"type":"Point","coordinates":[-3.637742,40.437934]},"properties":{"title":"Ciudad Lineal","description":"L5","group":568085409,"marker_id":"xllvhyfaudhy9dth","marker-color":"#e32c31"},"id":1745359655},{"type":"Feature","geometry":{"type":"Point","coordinates":[-3.726419,40.443801]},"properties":{"title":"Ciudad Universitaria","description":"L6","group":568085409,"marker_id":"xllvhyfaudhy9dth","marker-color":"#e32c31"},"id":1155769192},{"type":"Feature","geometry":{"type":"Point","coordinates":[-3.69343,40.360177]},"properties":{"title":"Ciudad de los Ángeles","description":"L3","group":568085409,"marker_id":"xllvhyfaudhy9dth","marker-color":"#e32c31"},"id":3927143897},{"type":"Feature","geometry":{"type":"Point","coordinates":[-3.676961,40.457118]},"properties":{"title":"Colombia","description":"L8 - L9","group":568085409,"marker_id":"xllvhyfaudhy9dth","marker-color":"#e32c31"},"id":2143727401},{"type":"Feature","geometry":{"type":"Point","coordinates":[-3.774798,40.396865]},"properties":{"title":"Colonia Jardín","description":"L10","group":568085409,"marker_id":"xllvhyfaudhy9dth","marker-color":"#e32c31"},"id":2626746589},{"type":"Feature","geometry":{"type":"Point","coordinates":[-3.69204,40.425804]},"properties":{"title":"Colón","description":"L4","group":568085409,"marker_id":"xllvhyfaudhy9dth","marker-color":"#e32c31"},"id":389943814},{"type":"Feature","geometry":{"type":"Point","coordinates":[-3.67761,40.451331]},"properties":{"title":"Concha Espina","description":"L9","group":568085409,"marker_id":"xllvhyfaudhy9dth","marker-color":"#e32c31"},"id":310140455},{"type":"Feature","geometry":{"type":"Point","coordinates":[-3.670122,40.407811]},"properties":{"title":"Conde de Casal","description":"L6","group":568085409,"marker_id":"xllvhyfaudhy9dth","marker-color":"#e32c31"},"id":4104760871},{"type":"Feature","geometry":{"type":"Point","coordinates":[-3.618729,40.3722]},"properties":{"title":"Congosto","description":"L1","group":568085409,"marker_id":"xllvhyfaudhy9dth","marker-color":"#e32c31"},"id":1166945739},{"type":"Feature","geometry":{"type":"Point","coordinates":[-3.745769,40.293251]},"properties":{"title":"Conservatorio","description":"L12","group":568085409,"marker_id":"xllvhyfaudhy9dth","marker-color":"#e32c31"},"id":3511889069},{"type":"Feature","geometry":{"type":"Point","coordinates":[-3.561965,40.423859]},"properties":{"title":"Coslada Central","description":"L7","group":568085409,"marker_id":"xllvhyfaudhy9dth","marker-color":"#e32c31"},"id":1512122293},{"type":"Feature","geometry":{"type":"Point","coordinates":[-3.67846,40.444485]},"properties":{"title":"Cruz del Rayo","description":"L9","group":568085409,"marker_id":"xllvhyfaudhy9dth","marker-color":"#e32c31"},"id":1840005904},{"type":"Feature","geometry":{"type":"Point","coordinates":[-3.703962,40.44678]},"properties":{"title":"Cuatro Caminos","description":"L1 - L2 - L6","group":568085409,"marker_id":"xllvhyfaudhy9dth","marker-color":"#e32c31"},"id":2905052728},{"type":"Feature","geometry":{"type":"Point","coordinates":[-3.791974,40.377897]},"properties":{"title":"Cuatro Vientos","description":"L10","group":568085409,"marker_id":"xllvhyfaudhy9dth","marker-color":"#e32c31"},"id":1364100073},{"type":"Feature","geometry":{"type":"Point","coordinates":[-3.690016,40.459486]},"properties":{"title":"Cuzco","description":"L10","group":568085409,"marker_id":"xllvhyfaudhy9dth","marker-color":"#e32c31"},"id":907261776},{"type":"Feature","geometry":{"type":"Point","coordinates":[-3.694122,40.399334]},"properties":{"title":"Delicias","description":"L3","group":568085409,"marker_id":"xllvhyfaudhy9dth","marker-color":"#e32c31"},"id":2820540876},{"type":"Feature","geometry":{"type":"Point","coordinates":[-3.674722,40.434476]},"properties":{"title":"Diego de León","description":"L4 - L5 - L6","group":568085409,"marker_id":"xllvhyfaudhy9dth","marker-color":"#e32c31"},"id":2605585303},{"type":"Feature","geometry":{"type":"Point","coordinates":[-3.680588,40.46748]},"properties":{"title":"Duque de Pastrana","description":"L9","group":568085409,"marker_id":"xllvhyfaudhy9dth","marker-color":"#e32c31"},"id":3591911672},{"type":"Feature","geometry":{"type":"Point","coordinates":[-3.729994,40.329397]},"properties":{"title":"El Bercial","description":"L12","group":568085409,"marker_id":"xllvhyfaudhy9dth","marker-color":"#e32c31"},"id":4013108823},{"type":"Feature","geometry":{"type":"Point","coordinates":[-3.594198,40.453382]},"properties":{"title":"El Capricho","description":"L5","group":568085409,"marker_id":"xllvhyfaudhy9dth","marker-color":"#e32c31"},"id":1167288143},{"type":"Feature","geometry":{"type":"Point","coordinates":[-3.65619,40.431972]},"properties":{"title":"El Carmen","description":"L5","group":568085409,"marker_id":"xllvhyfaudhy9dth","marker-color":"#e32c31"},"id":2876840340},{"type":"Feature","geometry":{"type":"Point","coordinates":[-3.740594,40.336451]},"properties":{"title":"El Carrascal","description":"L12","group":568085409,"marker_id":"xllvhyfaudhy9dth","marker-color":"#e32c31"},"id":1524024750},{"type":"Feature","geometry":{"type":"Point","coordinates":[-3.709691,40.31853]},"properties":{"title":"El Casar","description":"L3 - L12","group":568085409,"marker_id":"xllvhyfaudhy9dth","marker-color":"#e32c31"},"id":809736290},{"type":"Feature","geometry":{"type":"Point","coordinates":[-3.702273,40.404814]},"properties":{"title":"Embajadores","description":"L3 - L5","group":568085409,"marker_id":"xllvhyfaudhy9dth","marker-color":"#e32c31"},"id":3599714644},{"type":"Feature","geometry":{"type":"Point","coordinates":[-3.765485,40.390726]},"properties":{"title":"Empalme","description":"L5","group":568085409,"marker_id":"xllvhyfaudhy9dth","marker-color":"#e32c31"},"id":2213676808},{"type":"Feature","geometry":{"type":"Point","coordinates":[-3.645563,40.459244]},"properties":{"title":"Esperanza","description":"L4","group":568085409,"marker_id":"xllvhyfaudhy9dth","marker-color":"#e32c31"},"id":1588238417},{"type":"Feature","geometry":{"type":"Point","coordinates":[-3.691469,40.408842]},"properties":{"title":"Estación del Arte","description":"L1","group":568085409,"marker_id":"xllvhyfaudhy9dth","marker-color":"#e32c31"},"id":1081327934},{"type":"Feature","geometry":{"type":"Point","coordinates":[-3.600963,40.433802]},"properties":{"title":"Estadio Metropolitano","description":"L7","group":568085409,"marker_id":"xllvhyfaudhy9dth","marker-color":"#e32c31"},"id":2147515972},{"type":"Feature","geometry":{"type":"Point","coordinates":[-3.702754,40.454511]},"properties":{"title":"Estrecho","description":"L1","group":568085409,"marker_id":"xllvhyfaudhy9dth","marker-color":"#e32c31"},"id":3648567807},{"type":"Feature","geometry":{"type":"Point","coordinates":[-3.661349,40.411288]},"properties":{"title":"Estrella","description":"L9","group":568085409,"marker_id":"xllvhyfaudhy9dth","marker-color":"#e32c31"},"id":1475371992},{"type":"Feature","geometry":{"type":"Point","coordinates":[-3.751066,40.38442]},"properties":{"title":"Eugenia de Montijo","description":"L5","group":568085409,"marker_id":"xllvhyfaudhy9dth","marker-color":"#e32c31"},"id":556942674},{"type":"Feature","geometry":{"type":"Point","coordinates":[-3.616311,40.464003]},"properties":{"title":"Feria de Madrid","description":"L8","group":568085409,"marker_id":"xllvhyfaudhy9dth","marker-color":"#e32c31"},"id":2810251316},{"type":"Feature","geometry":{"type":"Point","coordinates":[-3.712115,40.456615]},"properties":{"title":"Francos Rodríguez","description":"L7","group":568085409,"marker_id":"xllvhyfaudhy9dth","marker-color":"#e32c31"},"id":3218537755},{"type":"Feature","geometry":{"type":"Point","coordinates":[-3.69307,40.494736]},"properties":{"title":"Fuencarral","description":"L10","group":568085409,"marker_id":"xllvhyfaudhy9dth","marker-color":"#e32c31"},"id":20846099},{"type":"Feature","geometry":{"type":"Point","coordinates":[-3.798277,40.282289]},"properties":{"title":"Fuenlabrada Central","description":"L12","group":568085409,"marker_id":"xllvhyfaudhy9dth","marker-color":"#e32c31"},"id":359712485},{"type":"Feature","geometry":{"type":"Point","coordinates":[-3.632864,40.42865]},"properties":{"title":"García Noblejas","description":"L7","group":568085409,"marker_id":"xllvhyfaudhy9dth","marker-color":"#e32c31"},"id":1916694097},{"type":"Feature","geometry":{"type":"Point","coordinates":[-3.734033,40.310002]},"properties":{"title":"Getafe Central","description":"L12","group":568085409,"marker_id":"xllvhyfaudhy9dth","marker-color":"#e32c31"},"id":309887147},{"type":"Feature","geometry":{"type":"Point","coordinates":[-3.6762,40.424702]},"properties":{"title":"Goya","description":"L2 - L4","group":568085409,"marker_id":"xllvhyfaudhy9dth","marker-color":"#e32c31"},"id":526161581},{"type":"Feature","geometry":{"type":"Point","coordinates":[-3.701623,40.419916]},"properties":{"title":"Gran Vía","description":"L1 - L5","group":568085409,"marker_id":"xllvhyfaudhy9dth","marker-color":"#e32c31"},"id":4095160261},{"type":"Feature","geometry":{"type":"Point","coordinates":[-3.691216,40.437996]},"properties":{"title":"Gregorio Marañón","description":"L7 - L10","group":568085409,"marker_id":"xllvhyfaudhy9dth","marker-color":"#e32c31"},"id":3176457917},{"type":"Feature","geometry":{"type":"Point","coordinates":[-3.713169,40.446276]},"properties":{"title":"Guzmán el Bueno","description":"L6 - L7","group":568085409,"marker_id":"xllvhyfaudhy9dth","marker-color":"#e32c31"},"id":2849744683},{"type":"Feature","geometry":{"type":"Point","coordinates":[-3.527095,40.41779]},"properties":{"title":"Henares","description":"L7","group":568085409,"marker_id":"xllvhyfaudhy9dth","marker-color":"#e32c31"},"id":2838277320},{"type":"Feature","geometry":{"type":"Point","coordinates":[-3.708009,40.484607]},"properties":{"title":"Herrera Oria","description":"L9","group":568085409,"marker_id":"xllvhyfaudhy9dth","marker-color":"#e32c31"},"id":2432216638},{"type":"Feature","geometry":{"type":"Point","coordinates":[-3.652124,40.474729]},"properties":{"title":"Hortaleza","description":"L4","group":568085409,"marker_id":"xllvhyfaudhy9dth","marker-color":"#e32c31"},"id":3625148904},{"type":"Feature","geometry":{"type":"Point","coordinates":[-3.695908,40.375462]},"properties":{"title":"Hospital 12 de Octubre","description":"L3","group":568085409,"marker_id":"xllvhyfaudhy9dth","marker-color":"#e32c31"},"id":40376599},{"type":"Feature","geometry":{"type":"Point","coordinates":[-3.611547,40.559846]},"properties":{"title":"Hospital Infanta Sofía","description":"L10","group":568085409,"marker_id":"xllvhyfaudhy9dth","marker-color":"#e32c31"},"id":1799692235},{"type":"Feature","geometry":{"type":"Point","coordinates":[-3.767828,40.321778]},"properties":{"title":"Hospital Severo Ochoa","description":"L12","group":568085409,"marker_id":"xllvhyfaudhy9dth","marker-color":"#e32c31"},"id":4168090351},{"type":"Feature","geometry":{"type":"Point","coordinates":[-3.815823,40.285846]},"properties":{"title":"Hospital de Fuenlabrada","description":"L12","group":568085409,"marker_id":"xllvhyfaudhy9dth","marker-color":"#e32c31"},"id":3631417615},{"type":"Feature","geometry":{"type":"Point","coordinates":[-3.874425,40.316313]},"properties":{"title":"Hospital de Móstoles","description":"L12","group":568085409,"marker_id":"xllvhyfaudhy9dth","marker-color":"#e32c31"},"id":3240497327},{"type":"Feature","geometry":{"type":"Point","coordinates":[-3.534514,40.417615]},"properties":{"title":"Hospital del Henares","description":"L7","group":568085409,"marker_id":"xllvhyfaudhy9dth","marker-color":"#e32c31"},"id":1864666059},{"type":"Feature","geometry":{"type":"Point","coordinates":[-3.678137,40.418366]},"properties":{"title":"Ibiza","description":"L9","group":568085409,"marker_id":"xllvhyfaudhy9dth","marker-color":"#e32c31"},"id":4169901239},{"type":"Feature","geometry":{"type":"Point","coordinates":[-3.698998,40.435258]},"properties":{"title":"Iglesia","description":"L1","group":568085409,"marker_id":"xllvhyfaudhy9dth","marker-color":"#e32c31"},"id":1706048553},{"type":"Feature","geometry":{"type":"Point","coordinates":[-3.713982,40.439045]},"properties":{"title":"Islas Filipinas","description":"L7","group":568085409,"marker_id":"xllvhyfaudhy9dth","marker-color":"#e32c31"},"id":2552004164},{"type":"Feature","geometry":{"type":"Point","coordinates":[-3.525364,40.423373]},"properties":{"title":"Jarama","description":"L7","group":568085409,"marker_id":"xllvhyfaudhy9dth","marker-color":"#e32c31"},"id":547172898},{"type":"Feature","geometry":{"type":"Point","coordinates":[-3.807321,40.349767]},"properties":{"title":"Joaquín Vilumbrales","description":"L10","group":568085409,"marker_id":"xllvhyfaudhy9dth","marker-color":"#e32c31"},"id":2484837257},{"type":"Feature","geometry":{"type":"Point","coordinates":[-3.722472,40.311801]},"properties":{"title":"Juan de la Cierva","description":"L12","group":568085409,"marker_id":"xllvhyfaudhy9dth","marker-color":"#e32c31"},"id":1207817248},{"type":"Feature","geometry":{"type":"Point","coordinates":[-3.752384,40.334623]},"properties":{"title":"Julián Besteiro","description":"L12","group":568085409,"marker_id":"xllvhyfaudhy9dth","marker-color":"#e32c31"},"id":2437774026},{"type":"Feature","geometry":{"type":"Point","coordinates":[-3.638256,40.423174]},"properties":{"title":"La Almudena","description":"L2","group":568085409,"marker_id":"xllvhyfaudhy9dth","marker-color":"#e32c31"},"id":1367723278},{"type":"Feature","geometry":{"type":"Point","coordinates":[-3.649468,40.426999]},"properties":{"title":"La Elipa","description":"L2","group":568085409,"marker_id":"xllvhyfaudhy9dth","marker-color":"#e32c31"},"id":2848977761},{"type":"Feature","geometry":{"type":"Point","coordinates":[-3.777655,40.358198]},"properties":{"title":"La Fortuna","description":"L11","group":568085409,"marker_id":"xllvhyfaudhy9dth","marker-color":"#e32c31"},"id":1058085153},{"type":"Feature","geometry":{"type":"Point","coordinates":[-3.612576,40.369238]},"properties":{"title":"La Gavia","description":"L1","group":568085409,"marker_id":"xllvhyfaudhy9dth","marker-color":"#e32c31"},"id":2194114451},{"type":"Feature","geometry":{"type":"Point","coordinates":[-3.658524,40.527437]},"properties":{"title":"La Granja","description":"L10","group":568085409,"marker_id":"xllvhyfaudhy9dth","marker-color":"#e32c31"},"id":1409529896},{"type":"Feature","geometry":{"type":"Point","coordinates":[-3.70831,40.411292]},"properties":{"title":"La Latina","description":"L5","group":568085409,"marker_id":"xllvhyfaudhy9dth","marker-color":"#e32c31"},"id":1914172623},{"type":"Feature","geometry":{"type":"Point","coordinates":[-3.635468,40.531939]},"properties":{"title":"La Moraleja","description":"L10","group":568085409,"marker_id":"xllvhyfaudhy9dth","marker-color":"#e32c31"},"id":753618918},{"type":"Feature","geometry":{"type":"Point","coordinates":[-3.757336,40.363189]},"properties":{"title":"La Peseta","description":"L11","group":568085409,"marker_id":"xllvhyfaudhy9dth","marker-color":"#e32c31"},"id":1323760015},{"type":"Feature","geometry":{"type":"Point","coordinates":[-3.477791,40.319033]},"properties":{"title":"La Poveda","description":"L9","group":568085409,"marker_id":"xllvhyfaudhy9dth","marker-color":"#e32c31"},"id":2361905254},{"type":"Feature","geometry":{"type":"Point","coordinates":[-3.547915,40.425147]},"properties":{"title":"La Rambla","description":"L7","group":568085409,"marker_id":"xllvhyfaudhy9dth","marker-color":"#e32c31"},"id":817596284},{"type":"Feature","geometry":{"type":"Point","coordinates":[-3.723105,40.485113]},"properties":{"title":"Lacoma","description":"L7","group":568085409,"marker_id":"xllvhyfaudhy9dth","marker-color":"#e32c31"},"id":2956965380},{"type":"Feature","geometry":{"type":"Point","coordinates":[-3.73488,40.416508]},"properties":{"title":"Lago","description":"L10","group":568085409,"marker_id":"xllvhyfaudhy9dth","marker-color":"#e32c31"},"id":2826572592},{"type":"Feature","geometry":{"type":"Point","coordinates":[-3.74464,40.399307]},"properties":{"title":"Laguna","description":"L6","group":568085409,"marker_id":"xllvhyfaudhy9dth","marker-color":"#e32c31"},"id":902998114},{"type":"Feature","geometry":{"type":"Point","coordinates":[-3.607851,40.432573]},"properties":{"title":"Las Musas","description":"L7","group":568085409,"marker_id":"xllvhyfaudhy9dth","marker-color":"#e32c31"},"id":2942308933},{"type":"Feature","geometry":{"type":"Point","coordinates":[-3.602843,40.423562]},"properties":{"title":"Las Rosas","description":"L2","group":568085409,"marker_id":"xllvhyfaudhy9dth","marker-color":"#e32c31"},"id":3387067342},{"type":"Feature","geometry":{"type":"Point","coordinates":[-3.599163,40.363509]},"properties":{"title":"Las Suertes","description":"L1","group":568085409,"marker_id":"xllvhyfaudhy9dth","marker-color":"#e32c31"},"id":1301118397},{"type":"Feature","geometry":{"type":"Point","coordinates":[-3.669434,40.508344]},"properties":{"title":"Las Tablas","description":"L10","group":568085409,"marker_id":"xllvhyfaudhy9dth","marker-color":"#e32c31"},"id":1121915173},{"type":"Feature","geometry":{"type":"Point","coordinates":[-3.700662,40.408459]},"properties":{"title":"Lavapiés","description":"L3","group":568085409,"marker_id":"xllvhyfaudhy9dth","marker-color":"#e32c31"},"id":3757437451},{"type":"Feature","geometry":{"type":"Point","coordinates":[-3.772355,40.328092]},"properties":{"title":"Leganés Central","description":"L12","group":568085409,"marker_id":"xllvhyfaudhy9dth","marker-color":"#e32c31"},"id":2792645658},{"type":"Feature","geometry":{"type":"Point","coordinates":[-3.694957,40.391446]},"properties":{"title":"Legazpi","description":"L3 - L6","group":568085409,"marker_id":"xllvhyfaudhy9dth","marker-color":"#e32c31"},"id":3975780782},{"type":"Feature","geometry":{"type":"Point","coordinates":[-3.675399,40.429401]},"properties":{"title":"Lista","description":"L4","group":568085409,"marker_id":"xllvhyfaudhy9dth","marker-color":"#e32c31"},"id":1647019228},{"type":"Feature","geometry":{"type":"Point","coordinates":[-3.836765,40.296743]},"properties":{"title":"Loranca","description":"L12","group":568085409,"marker_id":"xllvhyfaudhy9dth","marker-color":"#e32c31"},"id":1608541751},{"type":"Feature","geometry":{"type":"Point","coordinates":[-3.718318,40.324178]},"properties":{"title":"Los Espartales","description":"L12","group":568085409,"marker_id":"xllvhyfaudhy9dth","marker-color":"#e32c31"},"id":434877003},{"type":"Feature","geometry":{"type":"Point","coordinates":[-3.745271,40.404802]},"properties":{"title":"Lucero","description":"M6","group":568085409,"marker_id":"xllvhyfaudhy9dth","marker-color":"#e32c31"},"id":2003447012},{"type":"Feature","geometry":{"type":"Point","coordinates":[-3.66268,40.476702]},"properties":{"title":"Manoteras","description":"L4","group":568085409,"marker_id":"xllvhyfaudhy9dth","marker-color":"#e32c31"},"id":3930980054},{"type":"Feature","geometry":{"type":"Point","coordinates":[-3.668711,40.428147]},"properties":{"title":"Manuel Becerra","description":"L2 - L6","group":568085409,"marker_id":"xllvhyfaudhy9dth","marker-color":"#e32c31"},"id":679223070},{"type":"Feature","geometry":{"type":"Point","coordinates":[-3.646969,40.550223]},"properties":{"title":"Manuel de Falla","description":"L10","group":568085409,"marker_id":"xllvhyfaudhy9dth","marker-color":"#e32c31"},"id":3267703346},{"type":"Feature","geometry":{"type":"Point","coordinates":[-3.864774,40.309115]},"properties":{"title":"Manuela Malasaña","description":"L12","group":568085409,"marker_id":"xllvhyfaudhy9dth","marker-color":"#e32c31"},"id":3219162062},{"type":"Feature","geometry":{"type":"Point","coordinates":[-3.638584,40.469824]},"properties":{"title":"Mar de Cristal","description":"L4 - L8","group":568085409,"marker_id":"xllvhyfaudhy9dth","marker-color":"#e32c31"},"id":4091108083},{"type":"Feature","geometry":{"type":"Point","coordinates":[-3.716406,40.397449]},"properties":{"title":"Marqués de Vadillo","description":"L5","group":568085409,"marker_id":"xllvhyfaudhy9dth","marker-color":"#e32c31"},"id":2744188168},{"type":"Feature","geometry":{"type":"Point","coordinates":[-3.638051,40.540456]},"properties":{"title":"Marqués de la Valdivia","description":"L10","group":568085409,"marker_id":"xllvhyfaudhy9dth","marker-color":"#e32c31"},"id":4109655185},{"type":"Feature","geometry":{"type":"Point","coordinates":[-3.681101,40.404301]},"properties":{"title":"Menéndez Pelayo","description":"L1","group":568085409,"marker_id":"xllvhyfaudhy9dth","marker-color":"#e32c31"},"id":1890725771},{"type":"Feature","geometry":{"type":"Point","coordinates":[-3.640003,40.387548]},"properties":{"title":"Miguel Hernández","description":"L1","group":568085409,"marker_id":"xllvhyfaudhy9dth","marker-color":"#e32c31"},"id":2012149690},{"type":"Feature","geometry":{"type":"Point","coordinates":[-3.71654,40.491045]},"properties":{"title":"Mirasierra","description":"L9","group":568085409,"marker_id":"xllvhyfaudhy9dth","marker-color":"#e32c31"},"id":3683502292},{"type":"Feature","geometry":{"type":"Point","coordinates":[-3.719239,40.435023]},"properties":{"title":"Moncloa","description":"L3 - L6","group":568085409,"marker_id":"xllvhyfaudhy9dth","marker-color":"#e32c31"},"id":813156418},{"type":"Feature","geometry":{"type":"Point","coordinates":[-3.695993,40.505337]},"properties":{"title":"Montecarmelo","description":"L10","group":568085409,"marker_id":"xllvhyfaudhy9dth","marker-color":"#e32c31"},"id":40689804},{"type":"Feature","geometry":{"type":"Point","coordinates":[-3.68011,40.39572]},"properties":{"title":"Méndez Álvaro","description":"L6","group":568085409,"marker_id":"xllvhyfaudhy9dth","marker-color":"#e32c31"},"id":3543918261},{"type":"Feature","geometry":{"type":"Point","coordinates":[-3.863499,40.329005]},"properties":{"title":"Móstoles Central","description":"L12","group":568085409,"marker_id":"xllvhyfaudhy9dth","marker-color":"#e32c31"},"id":2295473313},{"type":"Feature","geometry":{"type":"Point","coordinates":[-3.707389,40.424775]},"properties":{"title":"Noviciado","description":"L2 - L3 - L10","group":568085409,"marker_id":"xllvhyfaudhy9dth","marker-color":"#e32c31"},"id":212504697},{"type":"Feature","geometry":{"type":"Point","coordinates":[-3.664761,40.395966]},"properties":{"title":"Nueva Numancia","description":"L1","group":568085409,"marker_id":"xllvhyfaudhy9dth","marker-color":"#e32c31"},"id":2940735307},{"type":"Feature","geometry":{"type":"Point","coordinates":[-3.691702,40.445841]},"properties":{"title":"Nuevos Ministerios","description":"L6 - L8 - L10","group":568085409,"marker_id":"xllvhyfaudhy9dth","marker-color":"#e32c31"},"id":1112404269},{"type":"Feature","geometry":{"type":"Point","coordinates":[-3.679556,40.432643]},"properties":{"title":"Núñez de Balboa","description":"L5 - L9","group":568085409,"marker_id":"xllvhyfaudhy9dth","marker-color":"#e32c31"},"id":148194749},{"type":"Feature","geometry":{"type":"Point","coordinates":[-3.723182,40.386933]},"properties":{"title":"Opañel","description":"L6","group":568085409,"marker_id":"xllvhyfaudhy9dth","marker-color":"#e32c31"},"id":3282396112},{"type":"Feature","geometry":{"type":"Point","coordinates":[-3.731727,40.388645]},"properties":{"title":"Oporto","description":"L5 - L6","group":568085409,"marker_id":"xllvhyfaudhy9dth","marker-color":"#e32c31"},"id":3062060951},{"type":"Feature","geometry":{"type":"Point","coordinates":[-3.669064,40.422205]},"properties":{"title":"O´Donnell","description":"L6","group":568085409,"marker_id":"xllvhyfaudhy9dth","marker-color":"#e32c31"},"id":2456368076},{"type":"Feature","geometry":{"type":"Point","coordinates":[-3.709165,40.499627]},"properties":{"title":"Paco de Lucía","description":"L9","group":568085409,"marker_id":"xllvhyfaudhy9dth","marker-color":"#e32c31"},"id":3627100709},{"type":"Feature","geometry":{"type":"Point","coordinates":[-3.674885,40.4014]},"properties":{"title":"Pacífico","description":"L1 - L6","group":568085409,"marker_id":"xllvhyfaudhy9dth","marker-color":"#e32c31"},"id":3606030008},{"type":"Feature","geometry":{"type":"Point","coordinates":[-3.694786,40.403087]},"properties":{"title":"Palos de la Frontera","description":"L3","group":568085409,"marker_id":"xllvhyfaudhy9dth","marker-color":"#e32c31"},"id":3409104282},{"type":"Feature","geometry":{"type":"Point","coordinates":[-3.734194,40.376185]},"properties":{"title":"Pan Bendito","description":"L11","group":568085409,"marker_id":"xllvhyfaudhy9dth","marker-color":"#e32c31"},"id":2699601672},{"type":"Feature","geometry":{"type":"Point","coordinates":[-3.807449,40.285224]},"properties":{"title":"Parque Europa","description":"L12","group":568085409,"marker_id":"xllvhyfaudhy9dth","marker-color":"#e32c31"},"id":3077205838},{"type":"Feature","geometry":{"type":"Point","coordinates":[-3.84905,40.345817]},"properties":{"title":"Parque Oeste","description":"L12","group":568085409,"marker_id":"xllvhyfaudhy9dth","marker-color":"#e32c31"},"id":1450074032},{"type":"Feature","geometry":{"type":"Point","coordinates":[-3.820782,40.349501]},"properties":{"title":"Parque de Lisboa","description":"L12","group":568085409,"marker_id":"xllvhyfaudhy9dth","marker-color":"#e32c31"},"id":182096538},{"type":"Feature","geometry":{"type":"Point","coordinates":[-3.645696,40.477128]},"properties":{"title":"Parque de Santa María","description":"L4","group":568085409,"marker_id":"xllvhyfaudhy9dth","marker-color":"#e32c31"},"id":399176855},{"type":"Feature","geometry":{"type":"Point","coordinates":[-3.662901,40.439305]},"properties":{"title":"Parque de las Avenidas","description":"L7","group":568085409,"marker_id":"xllvhyfaudhy9dth","marker-color":"#e32c31"},"id":116770513},{"type":"Feature","geometry":{"type":"Point","coordinates":[-3.787166,40.28666]},"properties":{"title":"Parque de los Estados","description":"L12","group":568085409,"marker_id":"xllvhyfaudhy9dth","marker-color":"#e32c31"},"id":1365787267},{"type":"Feature","geometry":{"type":"Point","coordinates":[-3.635208,40.400544]},"properties":{"title":"Pavones","description":"L9","group":568085409,"marker_id":"xllvhyfaudhy9dth","marker-color":"#e32c31"},"id":546434006},{"type":"Feature","geometry":{"type":"Point","coordinates":[-3.716052,40.475953]},"properties":{"title":"Peñagrande","description":"L7","group":568085409,"marker_id":"xllvhyfaudhy9dth","marker-color":"#e32c31"},"id":3748181047},{"type":"Feature","geometry":{"type":"Point","coordinates":[-3.667053,40.480053]},"properties":{"title":"Pinar de Chamartín","description":"L1 - L4","group":568085409,"marker_id":"xllvhyfaudhy9dth","marker-color":"#e32c31"},"id":893253209},{"type":"Feature","geometry":{"type":"Point","coordinates":[-3.648679,40.467831]},"properties":{"title":"Pinar del Rey","description":"L8","group":568085409,"marker_id":"xllvhyfaudhy9dth","marker-color":"#e32c31"},"id":785436165},{"type":"Feature","geometry":{"type":"Point","coordinates":[-3.711937,40.402044]},"properties":{"title":"Pirámides","description":"L5","group":568085409,"marker_id":"xllvhyfaudhy9dth","marker-color":"#e32c31"},"id":3532757179},{"type":"Feature","geometry":{"type":"Point","coordinates":[-3.72559,40.495305]},"properties":{"title":"Pitis","description":"L7","group":568085409,"marker_id":"xllvhyfaudhy9dth","marker-color":"#e32c31"},"id":4252169611},{"type":"Feature","geometry":{"type":"Point","coordinates":[-3.717875,40.385359]},"properties":{"title":"Plaza Elíptica","description":"L6 - L11","group":568085409,"marker_id":"xllvhyfaudhy9dth","marker-color":"#e32c31"},"id":999293682},{"type":"Feature","geometry":{"type":"Point","coordinates":[-3.689661,40.466283]},"properties":{"title":"Plaza de Castilla","description":"L1 - L9 - L10","group":568085409,"marker_id":"xllvhyfaudhy9dth","marker-color":"#e32c31"},"id":3399662592},{"type":"Feature","geometry":{"type":"Point","coordinates":[-3.710879,40.423452]},"properties":{"title":"Plaza de España","description":"L3 - L10","group":568085409,"marker_id":"xllvhyfaudhy9dth","marker-color":"#e32c31"},"id":3702365187},{"type":"Feature","geometry":{"type":"Point","coordinates":[-3.659193,40.393016]},"properties":{"title":"Portazgo","description":"L1","group":568085409,"marker_id":"xllvhyfaudhy9dth","marker-color":"#e32c31"},"id":1313887958},{"type":"Feature","geometry":{"type":"Point","coordinates":[-3.864828,40.321711]},"properties":{"title":"Pradillo","description":"L12","group":568085409,"marker_id":"xllvhyfaudhy9dth","marker-color":"#e32c31"},"id":2911044646},{"type":"Feature","geometry":{"type":"Point","coordinates":[-3.674849,40.444209]},"properties":{"title":"Prosperidad","description":"L4","group":568085409,"marker_id":"xllvhyfaudhy9dth","marker-color":"#e32c31"},"id":3826684968},{"type":"Feature","geometry":{"type":"Point","coordinates":[-3.719335,40.420964]},"properties":{"title":"Príncipe Pío","description":"L6 - L10 - R","group":568085409,"marker_id":"xllvhyfaudhy9dth","marker-color":"#e32c31"},"id":1709299556},{"type":"Feature","geometry":{"type":"Point","coordinates":[-3.680366,40.42265]},"properties":{"title":"Príncipe de Vergara","description":"L2 - L9","group":568085409,"marker_id":"xllvhyfaudhy9dth","marker-color":"#e32c31"},"id":3955170729},{"type":"Feature","geometry":{"type":"Point","coordinates":[-3.644173,40.435035]},"properties":{"title":"Pueblo Nuevo","description":"L5 - L7","group":568085409,"marker_id":"xllvhyfaudhy9dth","marker-color":"#e32c31"},"id":4260421179},{"type":"Feature","geometry":{"type":"Point","coordinates":[-3.668967,40.398093]},"properties":{"title":"Puente de Vallecas","description":"L1","group":568085409,"marker_id":"xllvhyfaudhy9dth","marker-color":"#e32c31"},"id":1529311248},{"type":"Feature","geometry":{"type":"Point","coordinates":[-3.595729,40.401244]},"properties":{"title":"Puerta de Arganda","description":"L9","group":568085409,"marker_id":"xllvhyfaudhy9dth","marker-color":"#e32c31"},"id":3773135060},{"type":"Feature","geometry":{"type":"Point","coordinates":[-3.711067,40.407052]},"properties":{"title":"Puerta de Toledo","description":"L5","group":568085409,"marker_id":"xllvhyfaudhy9dth","marker-color":"#e32c31"},"id":3379058513},{"type":"Feature","geometry":{"type":"Point","coordinates":[-3.812021,40.345209]},"properties":{"title":"Puerta del Sur","description":"L10 - L12","group":568085409,"marker_id":"xllvhyfaudhy9dth","marker-color":"#e32c31"},"id":3454398465},{"type":"Feature","geometry":{"type":"Point","coordinates":[-3.727134,40.413829]},"properties":{"title":"Puerta del Ángel","description":"L6","group":568085409,"marker_id":"xllvhyfaudhy9dth","marker-color":"#e32c31"},"id":1003214525},{"type":"Feature","geometry":{"type":"Point","coordinates":[-3.676533,40.461802]},"properties":{"title":"Pío XII","description":"L9","group":568085409,"marker_id":"xllvhyfaudhy9dth","marker-color":"#e32c31"},"id":3460622982},{"type":"Feature","geometry":{"type":"Point","coordinates":[-3.704496,40.433183]},"properties":{"title":"Quevedo","description":"L2","group":568085409,"marker_id":"xllvhyfaudhy9dth","marker-color":"#e32c31"},"id":3457964222},{"type":"Feature","geometry":{"type":"Point","coordinates":[-3.648149,40.433116]},"properties":{"title":"Quintana","description":"L5","group":568085409,"marker_id":"xllvhyfaudhy9dth","marker-color":"#e32c31"},"id":1347611467},{"type":"Feature","geometry":{"type":"Point","coordinates":[-3.684644,40.444319]},"properties":{"title":"República Argentina","description":"L6","group":568085409,"marker_id":"xllvhyfaudhy9dth","marker-color":"#e32c31"},"id":913734803},{"type":"Feature","geometry":{"type":"Point","coordinates":[-3.686429,40.420466]},"properties":{"title":"Retiro","description":"L2","group":568085409,"marker_id":"xllvhyfaudhy9dth","marker-color":"#e32c31"},"id":3853969779},{"type":"Feature","geometry":{"type":"Point","coordinates":[-3.624056,40.550911]},"properties":{"title":"Reyes Católicos","description":"L10","group":568085409,"marker_id":"xllvhyfaudhy9dth","marker-color":"#e32c31"},"id":890716340},{"type":"Feature","geometry":{"type":"Point","coordinates":[-3.525121,40.341878]},"properties":{"title":"Rivas Futura","description":"L9","group":568085409,"marker_id":"xllvhyfaudhy9dth","marker-color":"#e32c31"},"id":3278228981},{"type":"Feature","geometry":{"type":"Point","coordinates":[-3.547699,40.367149]},"properties":{"title":"Rivas Urbanizaciones","description":"L9","group":568085409,"marker_id":"xllvhyfaudhy9dth","marker-color":"#e32c31"},"id":3481335464},{"type":"Feature","geometry":{"type":"Point","coordinates":[-3.520439,40.328288]},"properties":{"title":"Rivas Vaciamadrid","description":"L9","group":568085409,"marker_id":"xllvhyfaudhy9dth","marker-color":"#e32c31"},"id":2457911165},{"type":"Feature","geometry":{"type":"Point","coordinates":[-3.662316,40.515158]},"properties":{"title":"Ronda de la Comunicación","description":"L10","group":568085409,"marker_id":"xllvhyfaudhy9dth","marker-color":"#e32c31"},"id":2317702684},{"type":"Feature","geometry":{"type":"Point","coordinates":[-3.68969,40.433043]},"properties":{"title":"Rubén Darío","description":"L5","group":568085409,"marker_id":"xllvhyfaudhy9dth","marker-color":"#e32c31"},"id":2799024064},{"type":"Feature","geometry":{"type":"Point","coordinates":[-3.701589,40.441594]},"properties":{"title":"Ríos Rosas","description":"L1","group":568085409,"marker_id":"xllvhyfaudhy9dth","marker-color":"#e32c31"},"id":993551809},{"type":"Feature","geometry":{"type":"Point","coordinates":[-3.669677,40.414396]},"properties":{"title":"Sainz de Baranda","description":"L6 - L9","group":568085409,"marker_id":"xllvhyfaudhy9dth","marker-color":"#e32c31"},"id":862905216},{"type":"Feature","geometry":{"type":"Point","coordinates":[-3.70576,40.429773]},"properties":{"title":"San Bernardo","description":"L2 - L4","group":568085409,"marker_id":"xllvhyfaudhy9dth","marker-color":"#e32c31"},"id":3955510423},{"type":"Feature","geometry":{"type":"Point","coordinates":[-3.615957,40.427502]},"properties":{"title":"San Blas","description":"L7","group":568085409,"marker_id":"xllvhyfaudhy9dth","marker-color":"#e32c31"},"id":4210443205},{"type":"Feature","geometry":{"type":"Point","coordinates":[-3.60355,40.403989]},"properties":{"title":"San Cipriano","description":"L9","group":568085409,"marker_id":"xllvhyfaudhy9dth","marker-color":"#e32c31"},"id":3814145652},{"type":"Feature","geometry":{"type":"Point","coordinates":[-3.693413,40.341615]},"properties":{"title":"San Cristóbal","description":"L3","group":568085409,"marker_id":"xllvhyfaudhy9dth","marker-color":"#e32c31"},"id":43095594},{"type":"Feature","geometry":{"type":"Point","coordinates":[-3.694389,40.36999]},"properties":{"title":"San Fermín-Orcasur","description":"L3","group":568085409,"marker_id":"xllvhyfaudhy9dth","marker-color":"#e32c31"},"id":270679801},{"type":"Feature","geometry":{"type":"Point","coordinates":[-3.535965,40.424491]},"properties":{"title":"San Fernando","description":"L7","group":568085409,"marker_id":"xllvhyfaudhy9dth","marker-color":"#e32c31"},"id":4193681209},{"type":"Feature","geometry":{"type":"Point","coordinates":[-3.739793,40.37366]},"properties":{"title":"San Francisco","description":"L11","group":568085409,"marker_id":"xllvhyfaudhy9dth","marker-color":"#e32c31"},"id":1146923126},{"type":"Feature","geometry":{"type":"Point","coordinates":[-3.639614,40.474564]},"properties":{"title":"San Lorenzo","description":"L4","group":568085409,"marker_id":"xllvhyfaudhy9dth","marker-color":"#e32c31"},"id":4262846355},{"type":"Feature","geometry":{"type":"Point","coordinates":[-3.776765,40.336704]},"properties":{"title":"San Nicasio","description":"L12","group":568085409,"marker_id":"xllvhyfaudhy9dth","marker-color":"#e32c31"},"id":613662467},{"type":"Feature","geometry":{"type":"Point","coordinates":[-3.690726,40.452369]},"properties":{"title":"Santiago Bernabéu","description":"L10","group":568085409,"marker_id":"xllvhyfaudhy9dth","marker-color":"#e32c31"},"id":562384847},{"type":"Feature","geometry":{"type":"Point","coordinates":[-3.708573,40.420429]},"properties":{"title":"Santo Domingo","description":"L2","group":568085409,"marker_id":"xllvhyfaudhy9dth","marker-color":"#e32c31"},"id":1161404866},{"type":"Feature","geometry":{"type":"Point","coordinates":[-3.6869,40.42539]},"properties":{"title":"Serrano","description":"L4","group":568085409,"marker_id":"xllvhyfaudhy9dth","marker-color":"#e32c31"},"id":2213678058},{"type":"Feature","geometry":{"type":"Point","coordinates":[-3.699947,40.417767]},"properties":{"title":"Sevilla","description":"L2","group":568085409,"marker_id":"xllvhyfaudhy9dth","marker-color":"#e32c31"},"id":3476531015},{"type":"Feature","geometry":{"type":"Point","coordinates":[-3.624916,40.382583]},"properties":{"title":"Sierra de Guadalupe","description":"L1","group":568085409,"marker_id":"xllvhyfaudhy9dth","marker-color":"#e32c31"},"id":3288313084},{"type":"Feature","geometry":{"type":"Point","coordinates":[-3.622989,40.427555]},"properties":{"title":"Simancas","description":"L7","group":568085409,"marker_id":"xllvhyfaudhy9dth","marker-color":"#e32c31"},"id":36151412},{"type":"Feature","geometry":{"type":"Point","coordinates":[-3.703388,40.416939]},"properties":{"title":"Sol","description":"L1 - L2 - L3","group":568085409,"marker_id":"xllvhyfaudhy9dth","marker-color":"#e32c31"},"id":154563489},{"type":"Feature","geometry":{"type":"Point","coordinates":[-3.627018,40.440882]},"properties":{"title":"Suanzes","description":"L5","group":568085409,"marker_id":"xllvhyfaudhy9dth","marker-color":"#e32c31"},"id":3001696613},{"type":"Feature","geometry":{"type":"Point","coordinates":[-3.698222,40.460857]},"properties":{"title":"Tetuán","description":"L1","group":568085409,"marker_id":"xllvhyfaudhy9dth","marker-color":"#e32c31"},"id":3108516392},{"type":"Feature","geometry":{"type":"Point","coordinates":[-3.704587,40.41236]},"properties":{"title":"Tirso de Molina","description":"L1","group":568085409,"marker_id":"xllvhyfaudhy9dth","marker-color":"#e32c31"},"id":133851767},{"type":"Feature","geometry":{"type":"Point","coordinates":[-3.617121,40.443622]},"properties":{"title":"Torre Arias","description":"L5","group":568085409,"marker_id":"xllvhyfaudhy9dth","marker-color":"#e32c31"},"id":78337635},{"type":"Feature","geometry":{"type":"Point","coordinates":[-3.694561,40.50094]},"properties":{"title":"Tres Olivos","description":"L10","group":568085409,"marker_id":"xllvhyfaudhy9dth","marker-color":"#e32c31"},"id":1728137304},{"type":"Feature","geometry":{"type":"Point","coordinates":[-3.70109,40.426244]},"properties":{"title":"Tribunal","description":"L1 - L10","group":568085409,"marker_id":"xllvhyfaudhy9dth","marker-color":"#e32c31"},"id":2134632655},{"type":"Feature","geometry":{"type":"Point","coordinates":[-3.872172,40.334861]},"properties":{"title":"Universidad Rey Juan Carlos","description":"L12","group":568085409,"marker_id":"xllvhyfaudhy9dth","marker-color":"#e32c31"},"id":1231793619},{"type":"Feature","geometry":{"type":"Point","coordinates":[-3.725363,40.392538]},"properties":{"title":"Urgel","description":"L5","group":568085409,"marker_id":"xllvhyfaudhy9dth","marker-color":"#e32c31"},"id":4108442576},{"type":"Feature","geometry":{"type":"Point","coordinates":[-3.705606,40.388035]},"properties":{"title":"Usera","description":"L6","group":568085409,"marker_id":"xllvhyfaudhy9dth","marker-color":"#e32c31"},"id":2548241082},{"type":"Feature","geometry":{"type":"Point","coordinates":[-3.694993,40.464525]},"properties":{"title":"Valdeacederas","description":"L1","group":568085409,"marker_id":"xllvhyfaudhy9dth","marker-color":"#e32c31"},"id":3253341678},{"type":"Feature","geometry":{"type":"Point","coordinates":[-3.621526,40.399911]},"properties":{"title":"Valdebernardo","description":"L9","group":568085409,"marker_id":"xllvhyfaudhy9dth","marker-color":"#e32c31"},"id":1369811784},{"type":"Feature","geometry":{"type":"Point","coordinates":[-3.592118,40.359992]},"properties":{"title":"Valdecarros","description":"L1","group":568085409,"marker_id":"xllvhyfaudhy9dth","marker-color":"#e32c31"},"id":3156260717},{"type":"Feature","geometry":{"type":"Point","coordinates":[-3.716518,40.464922]},"properties":{"title":"Valdezarza","description":"L7","group":568085409,"marker_id":"xllvhyfaudhy9dth","marker-color":"#e32c31"},"id":2917104003},{"type":"Feature","geometry":{"type":"Point","coordinates":[-3.682537,40.425177]},"properties":{"title":"Velázquez","description":"L4","group":568085409,"marker_id":"xllvhyfaudhy9dth","marker-color":"#e32c31"},"id":1910246330},{"type":"Feature","geometry":{"type":"Point","coordinates":[-3.663545,40.431067]},"properties":{"title":"Ventas","description":"L2 - L5","group":568085409,"marker_id":"xllvhyfaudhy9dth","marker-color":"#e32c31"},"id":3900013938},{"type":"Feature","geometry":{"type":"Point","coordinates":[-3.696293,40.469822]},"properties":{"title":"Ventilla","description":"L9","group":568085409,"marker_id":"xllvhyfaudhy9dth","marker-color":"#e32c31"},"id":2329638532},{"type":"Feature","geometry":{"type":"Point","coordinates":[-3.713293,40.426763]},"properties":{"title":"Ventura Rodríguez","description":"L3","group":568085409,"marker_id":"xllvhyfaudhy9dth","marker-color":"#e32c31"},"id":1250925724},{"type":"Feature","geometry":{"type":"Point","coordinates":[-3.719045,40.446508]},"properties":{"title":"Vicente Aleixandre","description":"L6","group":568085409,"marker_id":"xllvhyfaudhy9dth","marker-color":"#e32c31"},"id":1186270548},{"type":"Feature","geometry":{"type":"Point","coordinates":[-3.608898,40.404205]},"properties":{"title":"Vicálvaro","description":"L9","group":568085409,"marker_id":"xllvhyfaudhy9dth","marker-color":"#e32c31"},"id":2381494193},{"type":"Feature","geometry":{"type":"Point","coordinates":[-3.621325,40.379433]},"properties":{"title":"Villa de Vallecas","description":"L1","group":568085409,"marker_id":"xllvhyfaudhy9dth","marker-color":"#e32c31"},"id":3970118922},{"type":"Feature","geometry":{"type":"Point","coordinates":[-3.711771,40.341035]},"properties":{"title":"Villaverde Alto","description":"L3","group":568085409,"marker_id":"xllvhyfaudhy9dth","marker-color":"#e32c31"},"id":1696273525},{"type":"Feature","geometry":{"type":"Point","coordinates":[-3.692625,40.351036]},"properties":{"title":"Villaverde Bajo-Cruce","description":"L3","group":568085409,"marker_id":"xllvhyfaudhy9dth","marker-color":"#e32c31"},"id":876554926},{"type":"Feature","geometry":{"type":"Point","coordinates":[-3.652532,40.410333]},"properties":{"title":"Vinateros","description":"L9","group":568085409,"marker_id":"xllvhyfaudhy9dth","marker-color":"#e32c31"},"id":1529998215},{"type":"Feature","geometry":{"type":"Point","coordinates":[-3.740047,40.388791]},"properties":{"title":"Vista Alegre","description":"L5","group":568085409,"marker_id":"xllvhyfaudhy9dth","marker-color":"#e32c31"},"id":4290048910},{"type":"Feature","geometry":{"type":"Point","coordinates":[-3.709416,40.417988]},"properties":{"title":"Ópera","description":"L2 - L5 - R","group":568085409,"marker_id":"xllvhyfaudhy9dth","marker-color":"#e32c31"},"id":3440153703}],"groups":[{"title":"Stations de Métro","id":568085409}],"markers":[{"id":"xllvhyfaudhy9dth","offset":{"x":0,"y":0},"size":40}]}